,Station Name,Available Bikes,Empty Slots,Latitude,Longitude
0,SE 47th at Hawthorne,1,2,45.51195046,-122.6141596
1,NE 50th at Fremont,0,6,45.54827571,-122.6111636
2,NE Cully at Skidmore,2,3,45.553917,-122.6020709
3,SE Belmont at 45th,1,2,45.51658489,-122.6160378
4,SE 37th at Gladstone,1,2,45.49333654,-122.6233971
5,SE Gideon at 12th Ave MAX station,11,0,45.50280906,-122.6535398
6,SW 10th at Harvey Milk,2,14,45.52175423,-122.6810794
7,SE Elliott at Division,11,6,45.50512504,-122.6533681
8,SE Clinton at 26th,1,5,45.50356665,-122.6395279
9,SE 29th at Belmont,9,5,45.51623176,-122.6360679
10,SE Clay at Water,10,6,45.51147657,-122.6662856
11,SE 14th at Stark,1,17,45.51844688,-122.651685
12,SE Water at Taylor,7,3,45.51515295,-122.665776
13,SE Belmont at 42nd,1,10,45.51645917,-122.6189983
14,NE 28th at Couch,0,4,45.52373453,-122.6372065
15,NW 2nd at Everett,9,4,45.52536699,-122.6725459
16,NW 22nd at Lovejoy,6,3,45.52976024,-122.6966429
17,NW 11th at The Fields,7,11,45.53232501,-122.6824299
18,SW Morrison at 18th,8,9,45.52196048,-122.6896772
19,SE 9th at Madison,7,0,45.51299715,-122.6567262
20,NW Couch at 11th,8,9,45.52374151,-122.6818129
21,NW Glisan at 21st,0,10,45.52634601,-122.6941484
22,NW 21st at Johnson,3,9,45.52826831,-122.6945615
23,N Killingsworth at Albina,10,5,45.56282546,-122.6747467
24,NW Johnson at Jamison Square,1,12,45.5286366,-122.6820195
25,NW Station at Irving,11,0,45.5282777,-122.6766282
26,NW 23rd at Overton,13,1,45.53211645,-122.6986304
27,N Williams at Fremont,7,11,45.5475928,-122.6667604
28,Tilikum West at SW Moody,9,9,45.5027677,-122.6714408
29,NW Kearney at 23rd,6,12,45.52914205,-122.6987028
30,N Mississippi at Beech,0,18,45.54998583,-122.6756573
31,N Failing at Williams,1,11,45.55076344,-122.6668663
32,N Russell at Interstate,0,12,45.54107815,-122.6769716
33,SW 2nd at Pine,1,16,45.52142066,-122.6726291
34,SW Harvey Milk at Burnside,5,11,45.52279251,-122.6840124
35,SW River at Montgomery,24,1,45.50910258,-122.6735169
36,SW Market at Keller Fountain Park,5,7,45.5123205,-122.6789108
37,SE 37th at Division,3,0,45.50473239,-122.62528
38,NE 48th at Fremont,0,12,45.54830706,-122.6136768
39,SE 50th at Hawthorne,1,4,45.51189243,-122.6113057
40,NW Pettygrove at 15th,3,14,45.53290424,-122.68626
41,NE 30th at Glisan,0,2,45.52642975,-122.6347187
42,SE 49th at Division,0,3,45.50523618,-122.6121104
43,N Burrage at Killingsworth,2,1,45.56267617,-122.6946044
44,NE 22nd at Thompson (Irvington Tennis Club),1,10,45.53893649,-122.6432884
45,SE Belmont at 33rd,2,10,45.51649676,-122.6307517
46,SE 9th at Belmont,2,15,45.51633325,-122.6566324
47,N Mason at Williams,0,12,45.55335313,-122.6669146
48,SE Hawthorne at 20th,2,10,45.51222277,-122.6454261
49,NW Nicolai at Sherlock,2,0,45.54125782,-122.6966717
50,NE 28th at Glisan,0,3,45.52643433,-122.6362449
51,NE Alberta at 22nd,4,0,45.55905507,-122.6427104
52,NE Alberta at 24th,0,4,45.55908767,-122.6407517
53,NE 2nd at Schuyler,2,7,45.53561394,-122.6636343
54,N Interstate at Willamette,2,6,45.56197102,-122.6820369
55,SW Moody at Thomas,6,7,45.49429475,-122.6719048
56,NE Multnomah at Grand,2,6,45.53146071,-122.659741
57,NE Multnomah at 9th,5,3,45.53140997,-122.6574612
58,NE Going at Grand,3,15,45.55645437,-122.6603794
59,NE Sandy at 16th,2,16,45.52440674,-122.6497686
60,NE 22nd at Burnside,3,7,45.52297292,-122.6434118
61,SE 2nd Pl at Tilikum Way,5,12,45.50624163,-122.6633379
62,SE 29th at Hawthorne,1,17,45.51202353,-122.6363119
63,NE Alberta at 14th,0,3,45.55916922,-122.6514316
64,NE Alberta at 10th,3,2,45.55913676,-122.6554307
65,NE Couch at MLK,1,4,45.52358836,-122.6619177
66,NW Broadway at Everett,1,16,45.52507854,-122.6775563
67,SE 34th at Division,1,17,45.5048393,-122.6296306
68,SE 30th at Division,0,18,45.50468892,-122.6345551
69,SW 10th at Columbia,0,11,45.51544427,-122.6846749
70,SW 12th at Clay,1,8,45.51507401,-122.6870298
71,SW Harrison at 1st,1,17,45.50971347,-122.6777159
72,SW Moody at Aerial Tram Terminal,9,8,45.49913657,-122.6716433
73,NW Thurman at 24th,21,0,45.53550403,-122.7006608
74,NW Raleigh at 21st,1,13,45.53409115,-122.6949424
75,NW Marshall at Tanner Springs Park,5,11,45.53083126,-122.6815957
76,NW 13th at Marshall,7,7,45.53080401,-122.6844227
77,NW 18th at Northrup,11,1,45.53142501,-122.6895659
78,NE Alberta at 29th/30th,5,0,45.55902314,-122.6355462
79,NE 33rd at Jarrett (Kennedy School),1,2,45.56453067,-122.6305372
80,NE 14th Pl at Prescott,2,1,45.55568352,-122.6506644
81,NE Fremont at 15th,16,0,45.54828551,-122.6508106
82,N Michigan at Killingsworth,1,2,45.56251948,-122.6770306
83,N Prescott at Interstate,0,18,45.55522233,-122.6818612
84,NE Glisan at 24th,0,12,45.52649493,-122.6416328
85,NE Wheeler at Multnomah,6,7,45.53086696,-122.6658887
86,N Mississippi at Skidmore,0,12,45.55458563,-122.6755413
87,N Vancouver at Alberta,2,15,45.55941042,-122.6685226
88,NW Everett at 22nd,2,16,45.52487653,-122.6965141
89,NE 15th at Broadway,1,11,45.53508224,-122.6505639
90,SE 29th at Stark,1,16,45.51936283,-122.6359928
91,SE Clinton at 21st,1,17,45.5033655,-122.6447314
92,SE Belmont at 20th,1,9,45.51636144,-122.6460457
93,N Killingsworth at Gay,0,5,45.5627419,-122.6889932
94,SW 4th at College,1,10,45.50936198,-122.6812121
95,NE 17th at Killingsworth,4,0,45.56274555,-122.6480594
96,NE Killingsworth at 30th,8,0,45.56271655,-122.6350486
97,SE 9th at Burnside,5,9,45.52279251,-122.6566163
98,SE 40th at Hawthorne,0,8,45.51186486,-122.6210475
99,Metro Campus,0,8,45.52771962,-122.6603526
100,NE 10th at Halsey,0,7,45.53400578,-122.6555675
101,NE 50th at Sandy,3,4,45.53966541,-122.6118851
102,NE 60th at Cully,5,3,45.5559258,-122.6008129
103,NE 42nd at Alberta Court,2,5,45.55836114,-122.6203609
104,NE Glisan at 53rd,4,4,45.52646211,-122.6093034
105,SW Park at SW Wright (Oregon Holocaust Memorial),0,10,45.52181825,-122.7044079
106,NW 19th at Johnson,3,12,45.52862062,-122.6905073
107,NE Cully at Killingsworth,7,0,45.56250716,-122.5943702
108,NE 43rd at Sandy,5,0,45.53677138,-122.61884
109,N Wheeler at Broadway,0,11,45.53479718,-122.6686594
110,SE Powell Blvd at 28th,2,4,45.49787392,-122.6375156
111,NE 42nd at Hancock,5,2,45.53689808,-122.6199692
112,SW Salmon at Waterfront Park,2,16,45.51556831,-122.6738924
113,SE 50th at Clinton,0,5,45.50350608,-122.6110657
114,NE 11th at Holladay Park,0,12,45.5301398,-122.6546824
115,SE Gladstone at 28th Place,3,2,45.49334301,-122.6369745
116,SE 35th Place at Powell Blvd,0,8,45.49684155,-122.6276927
117,PSU Business Accelerator,0,3,45.50225355,-122.6753193
118,NE Holladay at 2nd,0,9,45.52996934,-122.6632373
119,SE Salmon St at 10th,4,1,45.51434624,-122.6558371
120,NW 10th at Everett,2,14,45.52500056,-122.6811048
121,SW Naito at Morrison,1,17,45.51782551,-122.6724963
122,SW 5th at Morrison,4,16,45.51889487,-122.6774061
123,SW Naito at Ankeny Plaza,4,14,45.52269573,-122.6703492
124,SW Morrison at Pioneer Courthouse Sq.,4,12,45.51946243,-122.6795143
125,SW 3rd at Morrison,7,5,45.51803412,-122.6755071
126,SW 5th at Oak,5,13,45.5211726,-122.6763654
127,NE MLK at Knott,1,17,45.54179953,-122.6614845
128,SW 3rd at Ankeny,3,13,45.52247868,-122.6732969
129,SW Yamhill at Director Park,3,17,45.51898132,-122.6812685
130,NW Raleigh at 13th,3,2,45.53434532,-122.6848841
131,SE 12th Ave at Hawthorne,13,0,45.5120668,-122.6536974
132,SW Rose Garden Way (Washington Park),0,7,45.5200329,-122.7061544
133,SE Division at 115th ave,0,8,45.5041321,-122.5451016
134,NW 3rd at Couch,6,0,45.52384,-122.673508
135,NE Glisan at 60th,2,5,45.526473,-122.6026943
136,Roosevelt HS Bike Corral,0,9,45.5891923,-122.7389314
137,SW 4th at Madison,1,5,45.5152252,-122.6783454
138,Lincoln Hall,0,4,45.5127694,-122.6834745
139,Shattuck Hall,3,0,45.5105937,-122.6854322
140,W Burnside at SW Park Ave,5,4,45.5229692,-122.6790213
141,SE 17th Ave at Mall St,13,0,45.491114,-122.648666
142,NE Ainsworth at Grand Ave,4,5,45.5664147,-122.6607857
143,N Interstate at Rosa Parks Way,6,0,45.5696768,-122.6820685
144,NE Dekum at Oneonta St,5,1,45.5717805,-122.6564844
145,NE Shaver west of 122nd Ave (Parkrose HS),1,8,45.5517567,-122.5398468
146,NE Killingsworth at 6th Ave,0,2,45.5627673,-122.6598278
147,NE Alberta at 18th,4,5,45.5590714,-122.646602
148,NE Halsey at 102nd,0,11,45.5335216,-122.5582468
149,N Interstate Ave at Lombard,5,0,45.576983,-122.6819395
150,N Fremont at Interstate Ave,1,4,45.5477847,-122.6812779
151,SE Foster at 54th Ave,1,0,45.4950271,-122.6076627
152,SE 96th Ave at Main,0,3,45.5140185,-122.5642134
153,NE 99th at Multnomah St,0,8,45.5311,-122.56249
154,Cully Park,10,0,45.5653576,-122.5887471
155,SE Stark at 79th Ave,0,6,45.5191725,-122.5822778
156,N Denver at Interstate Ave,3,6,45.584012,-122.6867319
157,NE Ainsworth at 42nd Ave,3,2,45.5664345,-122.6205956
158,N Willamette Blvd at Portsmouth,0,5,45.5760937,-122.7290524
159,NE 41st at Sandy Blvd (Hollywood Theatre),0,11,45.53577751,-122.620613
160,Kerr Bikes/Adaptive BIKETOWN,2,3,45.5103826,-122.6672484
161,NE Prescott at 72nd Ave,0,5,45.5554316,-122.5890544
162,N Willamette at Buchanan,1,6,45.5842278,-122.7460359
163,SW 5th at Main,5,9,45.5159726,-122.6791195
164,NE Fremont at 24th,3,2,45.5482433,-122.6409548
165,Epler Hall,1,1,45.5130553,-122.6877767
166,PSU SRTC,1,3,45.5127415,-122.6860864
167,OHSU Marquam Hill,0,9,45.4994679,-122.6854443
168,NE Sumner at MLK,0,3,45.5604984,-122.6621038
169,SE 64th at Lincoln St,3,0,45.5081532,-122.5978065
170,SE Holgate at 82nd Ave,0,5,45.4902606,-122.5785721
171,NW Naito at Couch,6,0,45.5237418,-122.6703424
172,N Willamette Blvd at Harvard St,0,3,45.5739428,-122.7203393
173,NE Knott at 33rd,5,0,45.5420646,-122.6308254
174,N Rosa Parks at Greeley,0,5,45.5699526,-122.695712
175,E Burnside at 102nd,0,9,45.5225034,-122.557861
176,NE 68th at Sandy,0,10,45.5464321,-122.5933109
177,NE Alberta at 31st Ave,0,5,45.5590435,-122.6340066
178,NW Front at 17th,1,13,45.5372206,-122.6875394
179,Millar Library,0,4,45.5114539,-122.6856399
180,N Willis Blvd at N Courtenay Ave,0,6,45.5840852,-122.7194481
181,NE 122nd Ave at Glisan St,0,6,45.5268753,-122.5377007
182,SE Foster at 72nd,3,8,45.4863971,-122.5889343
183,N Lombard at N Fortune,1,8,45.5849334,-122.7309533
184,NE Siskiyou at 81st Ave,1,8,45.5445104,-122.5799572
185,N Lombard at Burlington,0,9,45.5901519,-122.7547835
186,NE Sandy at 96th,2,6,45.55862047843104,-122.5638759
187,SE 34th at Hawthorne,4,8,45.511907,-122.6294804
188,Doernbecher Children's Hospital,0,6,45.4970894,-122.686551
189,SW Broadway at Smith Memorial Student Union,0,23,45.51184309,-122.68372
190,N Trenton at N Newman,0,9,45.5886277,-122.7157775
191,NW 20th Pl (Fred Meyer),2,16,45.5239729,-122.6932457
192,N Pittsburg at N Crawford,3,6,45.5868448,-122.7591351
193,SE 122nd at Burnside,4,0,45.5220396,-122.537573
194,NE Alberta at 12th,0,5,45.5591179,-122.6535114
195,NE Failing St at 79th Ave,0,7,45.5510308,-122.5814223
196,NW Flanders at 14th Ave,5,4,45.5257231,-122.6854375
197,NW 18th at Flanders,5,13,45.52556242,-122.6892561
198,N Concord Ave at Killingsworth St,0,5,45.5625479,-122.6848349
199,NW Naito at Ironside,10,0,45.52871176,-122.674166
200,NE 78th at Glisan,0,6,45.5264482,-122.583548
201,SE Division at 82nd,1,6,45.50509011,-122.57900777
202,N Midway at Fessenden St,2,7,45.5935627,-122.7354239
203,SE Stark at 102nd,0,6,45.5190613,-122.5584874
204,NE 82nd at Jonesmore,0,7,45.5337829,-122.5788583
205,N Morris at Vancouver,2,6,45.5446211,-122.667667
206,NE Halsey St at 106th,10,4,45.53344,-122.55386
207,N Rosa Parks Way at Albina,4,1,45.569917,-122.6744197
208,NE Killingsworth at NE 52nd,9,0,45.5628283,-122.6093459
209,Broadway Residence Hall,1,3,45.5092949,-122.6846036
210,SE 79th at Powell Blvd,0,6,45.4976098,-122.5818846
211,SE 113th at Stark,0,5,45.519326,-122.5468687
212,N Burrage Ave & N Houghton St,9,0,45.5870144,-122.6951643
213,NE Emerson at MLK Blvd,0,7,45.5616203,-122.6616835
214,Casey Eye Institute,0,6,45.4990782,-122.6837991
215,SE Woodward at 82nd Ave,1,6,45.5014076,-122.5788622
216,NW Flanders at 10th,1,3,45.5258454,-122.6814197
217,NE Broadway at 12th,1,15,45.53496857,-122.653631
218,SE 92nd at SE Holgate,0,8,45.4900193,-122.5688739
219,SE 28th at Pine,0,6,45.5205931,-122.637238
220,N Central at N Ida,0,9,45.588297,-122.7380898
221,SE Milwaukie at Pershing,7,0,45.4988159,-122.6540982
222,SE 92nd at Foster,2,6,45.4797127,-122.5686256
223,NE Alameda at 58th Ave,2,2,45.5422831,-122.6037107
224,Urban Center Plaza at SW 6th,2,12,45.51158277,-122.682281
225,SE 82nd Ave at SE Francis (Eastport Plaza),0,3,45.4941194,-122.5786536
226,Lone Fir Cemetery,0,3,45.5181656,-122.639145
227,N Alberta Street at Interstate Ave,1,6,45.55891838,-122.6824003
228,SE 81st Ave at E Burnside St,0,6,45.5226089,-122.5804512
229,N Winchell at N Woolsey,7,1,45.5808002,-122.7133655
230,SW 18th at Jefferson,3,9,45.51788377,-122.6920402
231,SE Holgate at SE Foster,1,7,45.4902649,-122.5979411
232,N Charleston at N Fessenden,5,4,45.5965621,-122.7478995
233,SE Alder at 6th,4,6,45.5178988,-122.6600522
234,SE 8th at Alder,8,0,45.5181026,-122.6576498
235,Cleveland High School,2,7,45.4989471,-122.6376686
236,NE 37th at NE Shaver,2,4,45.5523585,-122.6255876
237,NE 29th Ave (U of O),5,1,45.5703663,-122.6360426
